{"type":"FeatureCollection","features":[{"type":"Feature","id":114,"geometry":{"type":"Point","coordinates":[-84.371630600000003,33.755028299999999]},"properties":{"FID":114,"osm_id":"358679583","code":2082,"fclass":"school","name":"Archbishop R Ryan Memorial School"}},{"type":"Feature","id":155,"geometry":{"type":"Point","coordinates":[-84.406871600000002,33.7156631]},"properties":{"FID":155,"osm_id":"358682163","code":2082,"fclass":"school","name":"Capitol View Elementary School"}},{"type":"Feature","id":156,"geometry":{"type":"Point","coordinates":[-84.417428000000001,33.757050900000003]},"properties":{"FID":156,"osm_id":"358682296","code":2082,"fclass":"school","name":"KIPP West Atlanta Young Scholars Academy"}},{"type":"Feature","id":157,"geometry":{"type":"Point","coordinates":[-84.356036900000007,33.847048299999997]},"properties":{"FID":157,"osm_id":"358682299","code":2082,"fclass":"school","name":"Carter School"}},{"type":"Feature","id":160,"geometry":{"type":"Point","coordinates":[-84.388990500000006,33.718513000000002]},"properties":{"FID":160,"osm_id":"358682323","code":2082,"fclass":"school","name":"Carver Vocational School"}},{"type":"Feature","id":179,"geometry":{"type":"Point","coordinates":[-84.411950200000007,33.748339799999997]},"properties":{"FID":179,"osm_id":"358682907","code":2082,"fclass":"school","name":"Clark College"}},{"type":"Feature","id":182,"geometry":{"type":"Point","coordinates":[-84.437706599999999,33.760384299999998]},"properties":{"FID":182,"osm_id":"358682979","code":2082,"fclass":"school","name":"Clement School"}},{"type":"Feature","id":183,"geometry":{"type":"Point","coordinates":[-84.391315300000002,33.681497200000003]},"properties":{"FID":183,"osm_id":"358682996","code":2082,"fclass":"school","name":"Cleveland Avenue Elementary School"}},{"type":"Feature","id":193,"geometry":{"type":"Point","coordinates":[-84.440700699999994,33.732046699999998]},"properties":{"FID":193,"osm_id":"358683325","code":2082,"fclass":"school","name":"Connally Elementary School"}},{"type":"Feature","id":197,"geometry":{"type":"Point","coordinates":[-84.443845199999998,33.771897899999999]},"properties":{"FID":197,"osm_id":"358683687","code":2082,"fclass":"school","name":"Grove Park Elementary School"}},{"type":"Feature","id":198,"geometry":{"type":"Point","coordinates":[-84.396433999999999,33.725038599999998]},"properties":{"FID":198,"osm_id":"358683760","code":2082,"fclass":"school","name":"Walter Leonard Parks Middle School"}},{"type":"Feature","id":222,"geometry":{"type":"Point","coordinates":[-84.382148799999996,33.763717200000002]},"properties":{"FID":222,"osm_id":"358685099","code":2082,"fclass":"school","name":"Emory University School of Dentistry"}},{"type":"Feature","id":224,"geometry":{"type":"Point","coordinates":[-84.497708799999998,33.756218099999998]},"properties":{"FID":224,"osm_id":"358685236","code":2082,"fclass":"school","name":"Margaret Fain Elementary School"}},{"type":"Feature","id":238,"geometry":{"type":"Point","coordinates":[-84.372500200000005,33.698222000000001]},"properties":{"FID":238,"osm_id":"358685855","code":2082,"fclass":"school","name":"Fulton High School"}},{"type":"Feature","id":240,"geometry":{"type":"Point","coordinates":[-84.408325399999995,33.752187900000003]},"properties":{"FID":240,"osm_id":"358685913","code":2082,"fclass":"school","name":"Gammon Theological Seminary"}},{"type":"Feature","id":243,"geometry":{"type":"Point","coordinates":[-84.396038099999998,33.736773599999999]},"properties":{"FID":243,"osm_id":"358685974","code":2082,"fclass":"school","name":"Georgia Avenue School"}},{"type":"Feature","id":264,"geometry":{"type":"Point","coordinates":[-84.420761400000004,33.763162000000001]},"properties":{"FID":264,"osm_id":"358687355","code":2082,"fclass":"school","name":"Alonzo F Herndon Elementary School"}},{"type":"Feature","id":266,"geometry":{"type":"Point","coordinates":[-84.355203399999994,33.771216799999998]},"properties":{"FID":266,"osm_id":"358687444","code":2082,"fclass":"school","name":"Highland School"}},{"type":"Feature","id":279,"geometry":{"type":"Point","coordinates":[-84.376314699999995,33.671775199999999]},"properties":{"FID":279,"osm_id":"358688354","code":2082,"fclass":"school","name":"Joseph Humphries Elementary School"}},{"type":"Feature","id":285,"geometry":{"type":"Point","coordinates":[-84.433261799999997,33.742051400000001]},"properties":{"FID":285,"osm_id":"358688618","code":2082,"fclass":"school","name":"J C Harris School"}},{"type":"Feature","id":297,"geometry":{"type":"Point","coordinates":[-84.366314700000004,33.7289958]},"properties":{"FID":297,"osm_id":"358689152","code":2082,"fclass":"school","name":"Jones School"}},{"type":"Feature","id":301,"geometry":{"type":"Point","coordinates":[-84.388260000000002,33.7326069]},"properties":{"FID":301,"osm_id":"358689439","code":2082,"fclass":"school","name":"Key School"}},{"type":"Feature","id":321,"geometry":{"type":"Point","coordinates":[-84.413440100000003,33.739180099999999]},"properties":{"FID":321,"osm_id":"358690107","code":2082,"fclass":"school","name":"Lee Street School"}},{"type":"Feature","id":339,"geometry":{"type":"Point","coordinates":[-84.394927100000004,33.766772799999998]},"properties":{"FID":339,"osm_id":"358690861","code":2082,"fclass":"school","name":"Luckie Street School"}},{"type":"Feature","id":352,"geometry":{"type":"Point","coordinates":[-84.433539800000005,33.832049099999999]},"properties":{"FID":352,"osm_id":"358691414","code":2082,"fclass":"school","name":"Margaret Mitchell School"}},{"type":"Feature","id":370,"geometry":{"type":"Point","coordinates":[-84.381037399999997,33.720940499999998]},"properties":{"FID":370,"osm_id":"358692589","code":2082,"fclass":"school","name":"Milton Avenue School"}},{"type":"Feature","id":378,"geometry":{"type":"Point","coordinates":[-84.352981200000002,33.7970495]},"properties":{"FID":378,"osm_id":"358692973","code":2082,"fclass":"school","name":"Morningside Elementary School"}},{"type":"Feature","id":379,"geometry":{"type":"Point","coordinates":[-84.408415000000005,33.754340300000003]},"properties":{"FID":379,"osm_id":"358692976","code":2084,"fclass":"college","name":"Morris Brown College"}},{"type":"Feature","id":382,"geometry":{"type":"Point","coordinates":[-84.440484499999997,33.802327699999999]},"properties":{"FID":382,"osm_id":"358694329","code":2082,"fclass":"school","name":"Mount Vernon School"}},{"type":"Feature","id":427,"geometry":{"type":"Point","coordinates":[-84.419514599999999,33.738999700000001]},"properties":{"FID":427,"osm_id":"358697898","code":2082,"fclass":"school","name":"Rusk Elementary School"}},{"type":"Feature","id":439,"geometry":{"type":"Point","coordinates":[-84.387426500000004,33.709274200000003]},"properties":{"FID":439,"osm_id":"358699905","code":2082,"fclass":"school","name":"Luther Judson Price Middle School"}},{"type":"Feature","id":440,"geometry":{"type":"Point","coordinates":[-84.394144999999995,33.730688200000003]},"properties":{"FID":440,"osm_id":"358700118","code":2082,"fclass":"school","name":"Pryor Street School"}},{"type":"Feature","id":443,"geometry":{"type":"Point","coordinates":[-84.371593099999998,33.845659599999998]},"properties":{"FID":443,"osm_id":"358700183","code":2082,"fclass":"school","name":"R L Hope School"}},{"type":"Feature","id":446,"geometry":{"type":"Point","coordinates":[-84.424421100000004,33.7219622]},"properties":{"FID":446,"osm_id":"358700230","code":2082,"fclass":"school","name":"William M. Finch Elementry School"}},{"type":"Feature","id":463,"geometry":{"type":"Point","coordinates":[-84.361592599999994,33.820104600000001]},"properties":{"FID":463,"osm_id":"358701166","code":2082,"fclass":"school","name":"Rock Springs School"}},{"type":"Feature","id":485,"geometry":{"type":"Point","coordinates":[-84.405482899999996,33.726773899999998]},"properties":{"FID":485,"osm_id":"358702762","code":2084,"fclass":"college","name":"Salvation Army Training College"}},{"type":"Feature","id":486,"geometry":{"type":"Point","coordinates":[-84.362740799999997,33.782428299999999]},"properties":{"FID":486,"osm_id":"358702776","code":2082,"fclass":"school","name":"Virginia Highland Elementary School"}},{"type":"Feature","id":492,"geometry":{"type":"Point","coordinates":[-84.469652300000007,33.8023278]},"properties":{"FID":492,"osm_id":"358703152","code":2082,"fclass":"school","name":"William J Scott Elementary School"}},{"type":"Feature","id":498,"geometry":{"type":"Point","coordinates":[-84.391873000000004,33.718372299999999]},"properties":{"FID":498,"osm_id":"358704092","code":2082,"fclass":"school","name":"Thomas Heathe Slater Elementary School"}},{"type":"Feature","id":500,"geometry":{"type":"Point","coordinates":[-84.392642100000003,33.748232899999998]},"properties":{"FID":500,"osm_id":"358704302","code":2082,"fclass":"school","name":"Smith-Hughes Vocational School"}},{"type":"Feature","id":502,"geometry":{"type":"Point","coordinates":[-84.388550600000002,33.715005499999997]},"properties":{"FID":502,"osm_id":"358704463","code":2082,"fclass":"school","name":"Campbell Elementary School"}},{"type":"Feature","id":513,"geometry":{"type":"Point","coordinates":[-84.489374900000001,33.732885400000001]},"properties":{"FID":513,"osm_id":"358704610","code":2082,"fclass":"school","name":"Jean Childs Young Middle School"}},{"type":"Feature","id":524,"geometry":{"type":"Point","coordinates":[-84.442151100000004,33.753439999999998]},"properties":{"FID":524,"osm_id":"358704979","code":2082,"fclass":"school","name":"F L Stanton Elementary School"}},{"type":"Feature","id":529,"geometry":{"type":"Point","coordinates":[-84.417983199999995,33.715107600000003]},"properties":{"FID":529,"osm_id":"358705669","code":2082,"fclass":"school","name":"Sylvan Hills Middle School"}},{"type":"Feature","id":539,"geometry":{"type":"Point","coordinates":[-84.536320099999998,33.701219600000002]},"properties":{"FID":539,"osm_id":"358706105","code":2082,"fclass":"school","name":"Thomas Oliver School"}},{"type":"Feature","id":558,"geometry":{"type":"Point","coordinates":[-84.383537799999999,33.785383400000001]},"properties":{"FID":558,"osm_id":"358707388","code":2082,"fclass":"school","name":"University School"}},{"type":"Feature","id":564,"geometry":{"type":"Point","coordinates":[-84.449651000000003,33.714274500000002]},"properties":{"FID":564,"osm_id":"358707510","code":2082,"fclass":"school","name":"Venetian Hills Elementary School"}},{"type":"Feature","id":589,"geometry":{"type":"Point","coordinates":[-84.449050400000004,33.774403200000002]},"properties":{"FID":589,"osm_id":"358708484","code":2082,"fclass":"school","name":"Benjamin S Carson Honors Preparatory School"}},{"type":"Feature","id":594,"geometry":{"type":"Point","coordinates":[-84.354925399999999,33.732606699999998]},"properties":{"FID":594,"osm_id":"358708534","code":2082,"fclass":"school","name":"Atlanta Charter Middle School"}},{"type":"Feature","id":600,"geometry":{"type":"Point","coordinates":[-84.431873100000004,33.842604399999999]},"properties":{"FID":600,"osm_id":"358708620","code":2082,"fclass":"school","name":"Westminster School"}},{"type":"Feature","id":640,"geometry":{"type":"Point","coordinates":[-84.331591399999994,33.740661899999999]},"properties":{"FID":640,"osm_id":"358710363","code":2082,"fclass":"school","name":"Burgess-Peterson Academy"}},{"type":"Feature","id":652,"geometry":{"type":"Point","coordinates":[-84.339369399999995,33.769827900000003]},"properties":{"FID":652,"osm_id":"358710581","code":2082,"fclass":"school","name":"Mary Lin Elementary School"}},{"type":"Feature","id":657,"geometry":{"type":"Point","coordinates":[-84.331313499999993,33.746217299999998]},"properties":{"FID":657,"osm_id":"358710658","code":2082,"fclass":"school","name":"Crim Open Campus High School"}},{"type":"Feature","id":668,"geometry":{"type":"Point","coordinates":[-84.341869500000001,33.7528839]},"properties":{"FID":668,"osm_id":"358710910","code":2082,"fclass":"school","name":"Whitefoord Elementary School"}},{"type":"Feature","id":730,"geometry":{"type":"Point","coordinates":[-84.413301399999995,33.698146700000002]},"properties":{"FID":730,"osm_id":"358713847","code":2082,"fclass":"school","name":"Perkerson Elementary School"}},{"type":"Feature","id":849,"geometry":{"type":"Point","coordinates":[-84.439410199999998,33.7730307]},"properties":{"FID":849,"osm_id":"358720227","code":2082,"fclass":"school","name":"Carter G Woodson Elementary School"}},{"type":"Feature","id":850,"geometry":{"type":"Point","coordinates":[-84.464929799999993,33.777328500000003]},"properties":{"FID":850,"osm_id":"358720302","code":2082,"fclass":"school","name":"Center Hill School"}},{"type":"Feature","id":1405,"geometry":{"type":"Point","coordinates":[-84.389875900000007,33.718204499999999]},"properties":{"FID":1405,"osm_id":"358762126","code":2082,"fclass":"school","name":"Carver High School"}},{"type":"Feature","id":1430,"geometry":{"type":"Point","coordinates":[-84.423817299999996,33.842882099999997]},"properties":{"FID":1430,"osm_id":"358762817","code":2082,"fclass":"school","name":"Trinity School"}},{"type":"Feature","id":1798,"geometry":{"type":"Point","coordinates":[-84.415483600000002,33.829826799999999]},"properties":{"FID":1798,"osm_id":"358768588","code":2082,"fclass":"school","name":"Morris Brandon Elementary School"}},{"type":"Feature","id":1836,"geometry":{"type":"Point","coordinates":[-84.389927,33.819549100000003]},"properties":{"FID":1836,"osm_id":"358769927","code":2082,"fclass":"school","name":"E Rivers Elementary School"}},{"type":"Feature","id":2303,"geometry":{"type":"Point","coordinates":[-84.314646199999999,33.745106100000001]},"properties":{"FID":2303,"osm_id":"358779758","code":2082,"fclass":"school","name":"Charles R Drew Charter School"}},{"type":"Feature","id":2314,"geometry":{"type":"Point","coordinates":[-84.329646600000004,33.723717899999997]},"properties":{"FID":2314,"osm_id":"358779811","code":2082,"fclass":"school","name":"East Atlanta Middle School"}},{"type":"Feature","id":2490,"geometry":{"type":"Point","coordinates":[-84.513820300000006,33.754829299999997]},"properties":{"FID":2490,"osm_id":"358781474","code":2082,"fclass":"school","name":"Adamsville Elementary School"}},{"type":"Feature","id":2494,"geometry":{"type":"Point","coordinates":[-84.397704500000003,33.690108100000003]},"properties":{"FID":2494,"osm_id":"358781519","code":2082,"fclass":"school","name":"Brewer Elementary School"}},{"type":"Feature","id":2503,"geometry":{"type":"Point","coordinates":[-84.394648500000002,33.666775399999999]},"properties":{"FID":2503,"osm_id":"358781556","code":2082,"fclass":"school","name":"Crawford Williamson Long Middle School"}},{"type":"Feature","id":2511,"geometry":{"type":"Point","coordinates":[-84.489930099999995,33.702052799999997]},"properties":{"FID":2511,"osm_id":"358781617","code":2082,"fclass":"school","name":"Kimberly Elementary School"}},{"type":"Feature","id":2517,"geometry":{"type":"Point","coordinates":[-84.525487200000001,33.7559404]},"properties":{"FID":2517,"osm_id":"358781637","code":2082,"fclass":"school","name":"Lenora P Miles Elementary School"}},{"type":"Feature","id":2518,"geometry":{"type":"Point","coordinates":[-84.375759000000002,33.662886499999999]},"properties":{"FID":2518,"osm_id":"358781640","code":2082,"fclass":"school","name":"Heritage Academy Elementary School"}},{"type":"Feature","id":2533,"geometry":{"type":"Point","coordinates":[-84.504653500000003,33.775939800000003]},"properties":{"FID":2533,"osm_id":"358781749","code":2082,"fclass":"school","name":"George A Towns Elementary School"}},{"type":"Feature","id":2539,"geometry":{"type":"Point","coordinates":[-84.514652799999993,33.690108799999997]},"properties":{"FID":2539,"osm_id":"358781786","code":2082,"fclass":"school","name":"Ben Hill Elementary School"}},{"type":"Feature","id":2542,"geometry":{"type":"Point","coordinates":[-84.357981199999998,33.737051000000001]},"properties":{"FID":2542,"osm_id":"358781795","code":2084,"fclass":"college","name":"Beulah Heights Bible College"}},{"type":"Feature","id":2547,"geometry":{"type":"Point","coordinates":[-84.516597399999995,33.697330800000003]},"properties":{"FID":2547,"osm_id":"358781823","code":2082,"fclass":"school","name":"Fickett Elementary School"}},{"type":"Feature","id":2549,"geometry":{"type":"Point","coordinates":[-84.503984799999998,33.7339293]},"properties":{"FID":2549,"osm_id":"358781839","code":2082,"fclass":"school","name":"Mays High School"}},{"type":"Feature","id":2551,"geometry":{"type":"Point","coordinates":[-84.355203099999997,33.703996400000001]},"properties":{"FID":2551,"osm_id":"358781864","code":2082,"fclass":"school","name":"Thomasville Heights Elementary School"}},{"type":"Feature","id":2552,"geometry":{"type":"Point","coordinates":[-84.366870000000006,33.688996899999999]},"properties":{"FID":2552,"osm_id":"358781867","code":2082,"fclass":"school","name":"Tull Waters Elementary School"}},{"type":"Feature","id":2555,"geometry":{"type":"Point","coordinates":[-84.519931,33.714552599999998]},"properties":{"FID":2555,"osm_id":"358781881","code":2082,"fclass":"school","name":"West Atlanta Elementary School"}},{"type":"Feature","id":2561,"geometry":{"type":"Point","coordinates":[-84.454373799999999,33.759273399999998]},"properties":{"FID":2561,"osm_id":"358782061","code":2082,"fclass":"school","name":"University Community Academy"}},{"type":"Feature","id":2562,"geometry":{"type":"Point","coordinates":[-84.461596499999999,33.804827699999997]},"properties":{"FID":2562,"osm_id":"358782064","code":2082,"fclass":"school","name":"Archer High School"}},{"type":"Feature","id":2564,"geometry":{"type":"Point","coordinates":[-84.386009999999999,33.752884199999997]},"properties":{"FID":2564,"osm_id":"358782110","code":2081,"fclass":"university","name":"Georgia State University"}},{"type":"Feature","id":2569,"geometry":{"type":"Point","coordinates":[-84.439164700000006,33.7207881]},"properties":{"FID":2569,"osm_id":"358782178","code":2082,"fclass":"school","name":"Arkwright Elementary School"}},{"type":"Feature","id":2571,"geometry":{"type":"Point","coordinates":[-84.463262799999995,33.735662900000001]},"properties":{"FID":2571,"osm_id":"358782184","code":2082,"fclass":"school","name":"Beecher Hills Elementary School"}},{"type":"Feature","id":2578,"geometry":{"type":"Point","coordinates":[-84.382982100000007,33.728162599999997]},"properties":{"FID":2578,"osm_id":"358782226","code":2082,"fclass":"school","name":"The Barack & Michelle Obama Academy"}},{"type":"Feature","id":2592,"geometry":{"type":"Point","coordinates":[-84.459096200000005,33.745940400000002]},"properties":{"FID":2592,"osm_id":"358782303","code":2082,"fclass":"school","name":"Rosalie Wright Elementary School"}},{"type":"Feature","id":2598,"geometry":{"type":"Point","coordinates":[-84.399927500000004,33.873992299999998]},"properties":{"FID":2598,"osm_id":"358782337","code":2082,"fclass":"school","name":"Sutton Middle School Sixth Grade Campus"}},{"type":"Feature","id":2602,"geometry":{"type":"Point","coordinates":[-84.489652800000002,33.7398296]},"properties":{"FID":2602,"osm_id":"358782361","code":2082,"fclass":"school","name":"West Manor Elementary School"}},{"type":"Feature","id":2618,"geometry":{"type":"Point","coordinates":[-84.328535700000003,33.755105899999997]},"properties":{"FID":2618,"osm_id":"358782526","code":2082,"fclass":"school","name":"Fred A Toomer Elementary School"}},{"type":"Feature","id":2619,"geometry":{"type":"Point","coordinates":[-84.322424299999994,33.756216999999999]},"properties":{"FID":2619,"osm_id":"358782531","code":2082,"fclass":"school","name":"Kirkwood Elementary School"}},{"type":"Feature","id":2634,"geometry":{"type":"Point","coordinates":[-84.499097899999995,33.793994900000001]},"properties":{"FID":2634,"osm_id":"358782759","code":2082,"fclass":"school","name":"Alfred Blalock Elementary School"}},{"type":"Feature","id":2635,"geometry":{"type":"Point","coordinates":[-84.3743707,33.767883699999999]},"properties":{"FID":2635,"osm_id":"358782763","code":2082,"fclass":"school","name":"C W Hill Elementary School"}},{"type":"Feature","id":2636,"geometry":{"type":"Point","coordinates":[-84.4215947,33.743162499999997]},"properties":{"FID":2636,"osm_id":"358782765","code":2082,"fclass":"school","name":"Rusk Elementary School"}},{"type":"Feature","id":2637,"geometry":{"type":"Point","coordinates":[-84.422705899999997,33.748717800000001]},"properties":{"FID":2637,"osm_id":"358782768","code":2082,"fclass":"school","name":"M Agnes Jones Elementary School"}},{"type":"Feature","id":2641,"geometry":{"type":"Point","coordinates":[-84.431872799999994,33.739273699999998]},"properties":{"FID":2641,"osm_id":"358782892","code":2082,"fclass":"school","name":"Atlanta Street Academy"}},{"type":"Feature","id":2649,"geometry":{"type":"Point","coordinates":[-84.420205699999997,33.737606999999997]},"properties":{"FID":2649,"osm_id":"358783048","code":2082,"fclass":"school","name":"McClendons School of Dance"}},{"type":"Feature","id":2650,"geometry":{"type":"Point","coordinates":[-84.419372300000006,33.738162600000003]},"properties":{"FID":2650,"osm_id":"358783105","code":2082,"fclass":"school","name":"Saint Anthonys School"}},{"type":"Feature","id":2671,"geometry":{"type":"Point","coordinates":[-84.408780199999995,33.752239799999998]},"properties":{"FID":2671,"osm_id":"358783743","code":2082,"fclass":"school","name":"Interdenominational Theological Center"}},{"type":"Feature","id":2687,"geometry":{"type":"Point","coordinates":[-84.489444399999996,33.6988889]},"properties":{"FID":2687,"osm_id":"358784424","code":2082,"fclass":"school","name":"Daniel McLaughlin Therrell High School"}},{"type":"Feature","id":2688,"geometry":{"type":"Point","coordinates":[-84.521666699999997,33.7197222]},"properties":{"FID":2688,"osm_id":"358784435","code":2082,"fclass":"school","name":"Achieve Academy of Atlanta"}},{"type":"Feature","id":2689,"geometry":{"type":"Point","coordinates":[-84.441388900000007,33.760833300000002]},"properties":{"FID":2689,"osm_id":"358784438","code":2082,"fclass":"school","name":"School for Integrated Academics and Technologies"}},{"type":"Feature","id":2690,"geometry":{"type":"Point","coordinates":[-84.389049299999996,33.719093899999997]},"properties":{"FID":2690,"osm_id":"358784445","code":2082,"fclass":"school","name":"Early College High School at Carver"}},{"type":"Feature","id":2719,"geometry":{"type":"Point","coordinates":[-84.412096700000006,33.743133200000003]},"properties":{"FID":2719,"osm_id":"358784618","code":2081,"fclass":"university","name":"Morehouse School of Medicine"}},{"type":"Feature","id":2779,"geometry":{"type":"Point","coordinates":[-84.366799999999998,33.802100000000003]},"properties":{"FID":2779,"osm_id":"358785164","code":2082,"fclass":"school","name":"Heritage Preparatory School of Georgia"}},{"type":"Feature","id":2790,"geometry":{"type":"Point","coordinates":[-84.349299999999999,33.859699999999997]},"properties":{"FID":2790,"osm_id":"358785215","code":2082,"fclass":"school","name":"Sophia Academy"}},{"type":"Feature","id":2795,"geometry":{"type":"Point","coordinates":[-84.423889799999998,33.842569400000002]},"properties":{"FID":2795,"osm_id":"358785234","code":2082,"fclass":"school","name":"Atlanta Girls School"}},{"type":"Feature","id":2796,"geometry":{"type":"Point","coordinates":[-84.422499999999999,33.8414]},"properties":{"FID":2796,"osm_id":"358785244","code":2082,"fclass":"school","name":"Atlanta Speech School"}},{"type":"Feature","id":2797,"geometry":{"type":"Point","coordinates":[-84.375299999999996,33.781799999999997]},"properties":{"FID":2797,"osm_id":"358785247","code":2082,"fclass":"school","name":"Children's School"}},{"type":"Feature","id":2800,"geometry":{"type":"Point","coordinates":[-84.498369299999993,33.772150099999998]},"properties":{"FID":2800,"osm_id":"358785266","code":2082,"fclass":"school","name":"Imhotep Academy"}},{"type":"Feature","id":2863,"geometry":{"type":"Point","coordinates":[-84.349000000000004,33.7393]},"properties":{"FID":2863,"osm_id":"358785672","code":2082,"fclass":"school","name":"Light of the World Christian School"}},{"type":"Feature","id":2898,"geometry":{"type":"Point","coordinates":[-84.506699999999995,33.690899999999999]},"properties":{"FID":2898,"osm_id":"358785881","code":2082,"fclass":"school","name":"Believers Bible Christian Academy"}},{"type":"Feature","id":2902,"geometry":{"type":"Point","coordinates":[-84.515699999999995,33.691800000000001]},"properties":{"FID":2902,"osm_id":"358785894","code":2082,"fclass":"school","name":"Southwest Atlanta Christian Academy"}},{"type":"Feature","id":2903,"geometry":{"type":"Point","coordinates":[-84.515299999999996,33.692]},"properties":{"FID":2903,"osm_id":"358785898","code":2082,"fclass":"school","name":"Southwest Atlanta Christian Academy"}},{"type":"Feature","id":3646,"geometry":{"type":"Point","coordinates":[-84.3084791,33.797486200000002]},"properties":{"FID":3646,"osm_id":"491991757","code":2081,"fclass":"university","name":"Emory University Clairmont Residential Campus"}},{"type":"Feature","id":3706,"geometry":{"type":"Point","coordinates":[-84.367880400000004,33.7797895]},"properties":{"FID":3706,"osm_id":"532466814","code":2501,"fclass":"supermarket","name":"Trader Joe's"}},{"type":"Feature","id":3712,"geometry":{"type":"Point","coordinates":[-84.365783800000003,33.774652400000001]},"properties":{"FID":3712,"osm_id":"534028682","code":2505,"fclass":"department_store","name":"TJ Maxx"}},{"type":"Feature","id":4037,"geometry":{"type":"Point","coordinates":[-84.397848300000007,33.792708500000003]},"properties":{"FID":4037,"osm_id":"760929140","code":2501,"fclass":"supermarket","name":"Publix"}},{"type":"Feature","id":4074,"geometry":{"type":"Point","coordinates":[-84.386543599999996,33.820924900000001]},"properties":{"FID":4074,"osm_id":"779212218","code":2501,"fclass":"supermarket","name":"Publix"}},{"type":"Feature","id":4477,"geometry":{"type":"Point","coordinates":[-84.351420899999994,33.763502199999998]},"properties":{"FID":4477,"osm_id":"1237985321","code":2504,"fclass":"mall","name":"Four Corners of the Earth Market Place"}},{"type":"Feature","id":4540,"geometry":{"type":"Point","coordinates":[-84.412501599999999,33.801810400000001]},"properties":{"FID":4540,"osm_id":"1259091114","code":2501,"fclass":"supermarket","name":"Kroger"}},{"type":"Feature","id":4564,"geometry":{"type":"Point","coordinates":[-84.427983499999996,33.8483406]},"properties":{"FID":4564,"osm_id":"1273536542","code":2501,"fclass":"supermarket","name":"Publix"}},{"type":"Feature","id":4731,"geometry":{"type":"Point","coordinates":[-84.371215100000001,33.780674099999999]},"properties":{"FID":4731,"osm_id":"1573471359","code":2082,"fclass":"school","name":"Midtown High School"}},{"type":"Feature","id":4831,"geometry":{"type":"Point","coordinates":[-84.340308399999998,33.773566299999999]},"properties":{"FID":4831,"osm_id":"1654775761","code":2082,"fclass":"school","name":"Paideia School"}},{"type":"Feature","id":5086,"geometry":{"type":"Point","coordinates":[-84.414586299999996,33.810211700000004]},"properties":{"FID":5086,"osm_id":"1907452776","code":2501,"fclass":"supermarket","name":"Publix"}},{"type":"Feature","id":5101,"geometry":{"type":"Point","coordinates":[-84.3658985,33.775141099999999]},"properties":{"FID":5101,"osm_id":"1923227121","code":2501,"fclass":"supermarket","name":"Whole Foods Market"}},{"type":"Feature","id":5534,"geometry":{"type":"Point","coordinates":[-84.399524999999997,33.793086000000002]},"properties":{"FID":5534,"osm_id":"2421386319","code":2505,"fclass":"department_store","name":"Target"}},{"type":"Feature","id":6172,"geometry":{"type":"Point","coordinates":[-84.382760500000003,33.7870822]},"properties":{"FID":6172,"osm_id":"2749706086","code":2504,"fclass":"mall","name":"Colony Square"}},{"type":"Feature","id":6215,"geometry":{"type":"Point","coordinates":[-84.356365999999994,33.724594600000003]},"properties":{"FID":6215,"osm_id":"2771291637","code":2082,"fclass":"school","name":"Georgia State Police Academy"}},{"type":"Feature","id":6980,"geometry":{"type":"Point","coordinates":[-84.358763999999994,33.851706]},"properties":{"FID":6980,"osm_id":"3113367229","code":2505,"fclass":"department_store","name":"Target"}},{"type":"Feature","id":6985,"geometry":{"type":"Point","coordinates":[-84.363983000000005,33.846159]},"properties":{"FID":6985,"osm_id":"3113548129","code":2505,"fclass":"department_store","name":"Neiman Marcus"}},{"type":"Feature","id":6989,"geometry":{"type":"Point","coordinates":[-84.362217000000001,33.848253]},"properties":{"FID":6989,"osm_id":"3113556429","code":2505,"fclass":"department_store","name":"Macy's"}},{"type":"Feature","id":7100,"geometry":{"type":"Point","coordinates":[-84.359477600000005,33.8511259]},"properties":{"FID":7100,"osm_id":"3177347161","code":2501,"fclass":"supermarket","name":"Publix"}},{"type":"Feature","id":7396,"geometry":{"type":"Point","coordinates":[-84.383733300000003,33.835105900000002]},"properties":{"FID":7396,"osm_id":"3376750155","code":2501,"fclass":"supermarket","name":"Publix"}},{"type":"Feature","id":7415,"geometry":{"type":"Point","coordinates":[-84.487887900000004,33.686873800000001]},"properties":{"FID":7415,"osm_id":"3377390832","code":2501,"fclass":"supermarket","name":"Kroger"}},{"type":"Feature","id":7416,"geometry":{"type":"Point","coordinates":[-84.491299699999999,33.688962799999999]},"properties":{"FID":7416,"osm_id":"3377394829","code":2505,"fclass":"department_store","name":"Macy's"}},{"type":"Feature","id":7978,"geometry":{"type":"Point","coordinates":[-84.391713199999998,33.752850899999999]},"properties":{"FID":7978,"osm_id":"3548349216","code":2504,"fclass":"mall","name":"Downtown Mini Mall"}},{"type":"Feature","id":9695,"geometry":{"type":"Point","coordinates":[-84.362743399999999,33.755123699999999]},"properties":{"FID":9695,"osm_id":"4262434589","code":2082,"fclass":"school","name":"Inman Park Cooperative Preschool"}},{"type":"Feature","id":9964,"geometry":{"type":"Point","coordinates":[-84.365249800000001,33.8272312]},"properties":{"FID":9964,"osm_id":"4392934441","code":2505,"fclass":"department_store","name":"Ross"}},{"type":"Feature","id":11462,"geometry":{"type":"Point","coordinates":[-84.325678300000007,33.800339999999998]},"properties":{"FID":11462,"osm_id":"5257720864","code":2501,"fclass":"supermarket","name":"Earth Fare"}},{"type":"Feature","id":11632,"geometry":{"type":"Point","coordinates":[-84.366636200000002,33.8060112]},"properties":{"FID":11632,"osm_id":"5351986221","code":2501,"fclass":"supermarket","name":"Sprouts Farmers Market"}},{"type":"Feature","id":11635,"geometry":{"type":"Point","coordinates":[-84.379456500000003,33.736995399999998]},"properties":{"FID":11635,"osm_id":"5353863723","code":2082,"fclass":"school","name":"Urban Explorers Prescool"}},{"type":"Feature","id":12273,"geometry":{"type":"Point","coordinates":[-84.374337199999999,33.845581899999999]},"properties":{"FID":12273,"osm_id":"5735187122","code":2501,"fclass":"supermarket","name":"Publix"}},{"type":"Feature","id":12460,"geometry":{"type":"Point","coordinates":[-84.389419599999997,33.7757942]},"properties":{"FID":12460,"osm_id":"5846621785","code":2081,"fclass":"university","name":"Center for Spatial Planning Analytics and Visualization"}},{"type":"Feature","id":12578,"geometry":{"type":"Point","coordinates":[-84.375123200000004,33.840867799999998]},"properties":{"FID":12578,"osm_id":"5899746387","code":2501,"fclass":"supermarket","name":"Trader Joe's"}},{"type":"Feature","id":14155,"geometry":{"type":"Point","coordinates":[-84.350383500000007,33.720119099999998]},"properties":{"FID":14155,"osm_id":"6903329386","code":2501,"fclass":"supermarket","name":"Piggly Wiggly"}},{"type":"Feature","id":14196,"geometry":{"type":"Point","coordinates":[-84.374042000000003,33.844276299999997]},"properties":{"FID":14196,"osm_id":"6952186085","code":2505,"fclass":"department_store","name":"Marshalls"}},{"type":"Feature","id":15038,"geometry":{"type":"Point","coordinates":[-84.386000600000003,33.827911]},"properties":{"FID":15038,"osm_id":"7603259568","code":2082,"fclass":"school","name":" "}},{"type":"Feature","id":16117,"geometry":{"type":"Point","coordinates":[-84.387079099999994,33.754340800000001]},"properties":{"FID":16117,"osm_id":"8103555711","code":2081,"fclass":"university","name":"Herzing University, Atlanta"}},{"type":"Feature","id":16347,"geometry":{"type":"Point","coordinates":[-84.382954699999999,33.760789299999999]},"properties":{"FID":16347,"osm_id":"8241708975","code":2082,"fclass":"school","name":"Christo Rey Atlanta Jesuit High School"}},{"type":"Feature","id":17057,"geometry":{"type":"Point","coordinates":[-84.373311099999995,33.841071599999999]},"properties":{"FID":17057,"osm_id":"8715823269","code":2501,"fclass":"supermarket","name":"ALDI"}},{"type":"Feature","id":17331,"geometry":{"type":"Point","coordinates":[-84.365437600000007,33.826732499999999]},"properties":{"FID":17331,"osm_id":"8825648850","code":2505,"fclass":"department_store","name":"Marshalls"}},{"type":"Feature","id":18043,"geometry":{"type":"Point","coordinates":[-84.370041900000004,33.848056999999997]},"properties":{"FID":18043,"osm_id":"8985941815","code":2081,"fclass":"university","name":"Georgia State University Buckhead Center"}},{"type":"Feature","id":18937,"geometry":{"type":"Point","coordinates":[-84.409139800000005,33.6827544]},"properties":{"FID":18937,"osm_id":"9176612265","code":2501,"fclass":"supermarket","name":"Kroger"}},{"type":"Feature","id":19250,"geometry":{"type":"Point","coordinates":[-84.388755599999996,33.780447899999999]},"properties":{"FID":19250,"osm_id":"9244488380","code":2501,"fclass":"supermarket","name":"Publix"}},{"type":"Feature","id":19907,"geometry":{"type":"Point","coordinates":[-84.379103700000002,33.871177000000003]},"properties":{"FID":19907,"osm_id":"9453819821","code":2501,"fclass":"supermarket","name":"Publix"}},{"type":"Feature","id":23336,"geometry":{"type":"Point","coordinates":[-84.361240499999994,33.853378300000003]},"properties":{"FID":23336,"osm_id":"10171464626","code":2505,"fclass":"department_store","name":"Nordstrom"}},{"type":"Feature","id":24619,"geometry":{"type":"Point","coordinates":[-84.331171999999995,33.804819000000002]},"properties":{"FID":24619,"osm_id":"10834410890","code":2110,"fclass":"hospital","name":"Emory Wesley Woods Hospital"}},{"type":"Feature","id":24621,"geometry":{"type":"Point","coordinates":[-84.382754399999996,33.773777199999998]},"properties":{"FID":24621,"osm_id":"10834436435","code":2110,"fclass":"hospital","name":"Select Specialty Hospital - Midtown Atlanta"}},{"type":"Feature","id":25949,"geometry":{"type":"Point","coordinates":[-84.366723800000003,33.825479799999997]},"properties":{"FID":25949,"osm_id":"11160268148","code":2501,"fclass":"supermarket","name":"Impact Window Tinting"}},{"type":"Feature","id":27918,"geometry":{"type":"Point","coordinates":[-84.395945999999995,33.679891099999999]},"properties":{"FID":27918,"osm_id":"11617197123","code":2501,"fclass":"supermarket","name":"Piggly Wiggly"}},{"type":"Feature","id":33014,"geometry":{"type":"Point","coordinates":[-84.445065799999995,33.863988999999997]},"properties":{"FID":33014,"osm_id":"12533059255","code":2082,"fclass":"school","name":"North Atlanta High School"}},{"type":"Feature","id":33319,"geometry":{"type":"Point","coordinates":[-84.514229099999994,33.754918199999999]},"properties":{"FID":33319,"osm_id":"12571365954","code":2082,"fclass":"school","name":"The Kindezi School - West"}},{"type":"Feature","id":33335,"geometry":{"type":"Point","coordinates":[-84.371606999999997,33.864998499999999]},"properties":{"FID":33335,"osm_id":"12572892276","code":2082,"fclass":"school","name":"Sarah Smith Intermediate School"}}]}